City_ID,City,Lat,Lng,Max Temp,Humidity,Cloudiness,Wind Speed,Country,Date
0,grytviken,-54.2811,-36.5092,-2.36,72,21,9.44,GS,1729713677
1,udachny,66.4167,112.4,-15.53,98,99,1.21,RU,1729713677
2,karachi,24.9056,67.0822,25.9,61,0,2.06,PK,1729713499
3,oltinko'l,40.8011,72.1634,12.86,79,95,1.17,UZ,1729713677
4,puerto deseado,-47.7503,-65.8938,11.26,60,11,5.75,AR,1729713677
5,albany,42.6001,-73.9662,25.19,31,4,1.34,US,1729713677
6,port-aux-francais,-49.35,70.2167,2.63,69,95,13.52,TF,1729713678
7,polyarnyy,69.1989,33.4478,2.72,89,17,2.84,RU,1729713678
8,nova sintra,14.8667,-24.7167,26.09,76,38,5.0,CV,1729713678
9,chonchi,-42.6128,-73.8092,17.84,58,11,1.03,CL,1729713678
10,puerto baquerizo moreno,-0.9,-89.6,25.55,69,75,7.72,EC,1729713678
11,new norfolk,-42.7826,147.0587,8.17,76,34,2.22,AU,1729713678
12,kamaishi,39.2667,141.8833,15.73,82,9,4.04,JP,1729713678
13,bilibino,68.0546,166.4372,-17.92,100,100,1.33,RU,1729713599
14,holualoa,19.6228,-155.9522,26.42,75,88,0.45,US,1729713678
15,juneau,58.3019,-134.4197,5.23,100,100,2.3,US,1729713678
16,port alfred,-33.5906,26.891,17.32,94,85,1.79,ZA,1729713679
17,mana,5.6592,-53.7767,28.36,73,100,5.14,GF,1729713679
18,kingston,17.997,-76.7936,31.76,70,20,3.6,JM,1729713679
19,adamstown,-25.066,-130.1015,20.53,69,100,6.77,PN,1729713599
20,cabo san lucas,22.8909,-109.9124,32.64,46,6,2.24,MX,1729713606
21,forster,-32.1667,152.5167,16.88,100,72,2.04,AU,1729713679
22,mynamaki,60.7446,22.0243,10.08,78,100,5.19,FI,1729713679
23,puerto natales,-51.7236,-72.4875,16.25,44,75,11.32,CL,1729713549
24,margaret river,-33.95,115.0667,9.03,89,5,2.84,AU,1729713679
25,ocnita,44.9833,25.55,10.62,99,11,1.89,RO,1729713679
26,bethel,41.3712,-73.414,24.77,59,0,1.34,US,1729713680
27,tiksi,71.6872,128.8694,-20.36,94,61,1.34,RU,1729713680
28,mongoumba,3.6415,18.5936,23.71,89,100,0.55,CF,1729713600
29,weno,7.4515,151.8468,26.97,89,100,4.12,FM,1729713600
30,malabar,-33.9667,151.25,19.32,82,20,7.72,AU,1729713680
31,hilo,19.7297,-155.09,27.28,85,44,1.79,US,1729713680
32,lauro de freitas,-12.8944,-38.3272,28.01,65,20,5.14,BR,1729713586
33,colonel hill,22.7667,-74.2167,28.03,72,20,3.65,BS,1729713680
34,queenstown,-31.8976,26.8753,12.51,87,16,0.65,ZA,1729713680
35,port elizabeth,-33.918,25.5701,17.4,97,16,3.13,ZA,1729713680
36,goldsboro,35.3849,-77.9928,26.89,44,20,2.57,US,1729713681
37,huarmey,-10.0681,-78.1522,21.21,75,20,5.65,PE,1729713681
38,waitangi,-43.9535,-176.5597,14.9,93,27,2.68,NZ,1729713601
39,lihue,21.9789,-159.3672,27.77,73,40,4.12,US,1729713681
40,bredasdorp,-34.5322,20.0403,16.21,86,89,0.94,ZA,1729713601
41,edinburgh of the seven seas,-37.0676,-12.3116,14.81,82,100,16.3,SH,1729713531
42,rostovka,55.3842,71.8891,3.97,91,100,4.17,RU,1729713602
43,howrah,22.5892,88.3103,26.0,89,75,4.12,IN,1729713681
44,smithers,54.7804,-127.1743,3.18,70,75,1.54,CA,1729713602
45,college,64.8569,-147.8028,-0.01,77,100,4.12,US,1729713602
46,i-n-salah,27.1935,2.4607,24.79,31,0,4.22,DZ,1729713602
47,dunedin,-45.8742,170.5036,13.78,94,100,2.71,NZ,1729713638
48,pontianak,-0.0333,109.3333,23.99,100,100,0.51,ID,1729713682
49,guerrero negro,27.9769,-114.0611,24.71,53,0,6.01,MX,1729713682
50,recreo,-29.2818,-65.061,23.71,56,100,3.66,AR,1729713682
51,blackmans bay,-43.0167,147.3167,8.07,77,8,0.45,AU,1729713519
52,salalah,17.0151,54.0924,27.17,82,100,2.84,OM,1729713682
53,gibara,21.1097,-76.1317,28.11,74,61,3.55,CU,1729713682
54,fangshan,39.6983,115.9925,12.18,46,0,0.97,CN,1729713682
55,ust-nera,64.5667,143.2,-17.91,98,100,2.01,RU,1729713682
56,fort bragg,35.139,-79.006,28.15,44,0,1.54,US,1729713682
57,punta arenas,-53.15,-70.9167,13.06,50,0,8.23,CL,1729713683
58,georgetown,5.4112,100.3354,26.96,82,20,1.03,MY,1729713647
59,ushuaia,-54.8,-68.3,10.81,54,0,11.83,AR,1729713604
60,al hazm,16.1641,44.7769,27.49,32,100,1.03,YE,1729713683
61,hermanus,-34.4187,19.2345,18.78,63,80,4.08,ZA,1729713683
62,varva,50.495,32.7197,8.83,81,0,4.65,UA,1729713683
63,lebu,-37.6167,-73.65,14.49,83,91,4.59,CL,1729713604
64,port mathurin,-19.6833,63.4167,22.96,90,100,11.79,MU,1729713605
65,morant bay,17.8815,-76.4093,29.09,76,28,2.29,JM,1729713683
66,castillos,-34.1667,-53.8333,20.16,72,59,5.82,UY,1729713605
67,tekirova,36.5017,30.5272,17.55,48,0,2.17,TR,1729713683
68,puerto ayora,-0.7393,-90.3518,22.53,89,77,3.13,EC,1729713684
69,sarh,9.1429,18.3923,26.79,66,4,0.8,TD,1729713684
70,tura,25.5198,90.2201,21.89,95,100,1.06,IN,1729713684
71,richards bay,-28.783,32.0377,20.32,81,96,6.23,ZA,1729713684
72,ilulissat,69.2167,-51.1,0.01,74,75,6.17,GL,1729713684
73,kolpny,52.2282,37.0368,9.53,74,100,6.65,RU,1729713684
74,ak'ordat,15.5486,37.8867,26.93,64,100,2.36,ER,1729713606
75,saint clairsville,40.0806,-80.9001,25.18,39,74,6.34,US,1729713606
76,shingu,33.7333,135.9833,22.05,91,99,2.12,JP,1729713684
77,stanley,54.868,-1.6985,11.01,86,20,2.06,GB,1729713684
78,namtsy,62.7161,129.6658,-10.93,93,99,3.41,RU,1729713684
79,tual,-5.6667,132.75,26.95,77,100,1.93,ID,1729713606
80,san patricio,28.017,-97.5169,31.77,39,0,4.84,US,1729713685
81,sitka,57.0531,-135.33,6.15,84,100,1.17,US,1729713685
82,tamanrasset,22.785,5.5228,25.95,19,0,3.09,DZ,1729713685
83,constantia,44.1833,28.65,10.39,56,39,4.68,RO,1729713606
84,anadyr,64.75,177.4833,-6.72,73,20,8.0,RU,1729713685
85,aykhal,66.0,111.5,-15.69,98,98,1.36,RU,1729713607
86,ribeira grande,38.5167,-28.7,20.43,73,40,5.81,PT,1729713685
87,igarka,67.4667,86.5833,-14.44,97,99,3.68,RU,1729713685
88,olonkinbyen,70.9221,-8.7187,-1.22,84,100,1.68,SJ,1729713685
89,conde,-7.2597,-34.9075,27.7,61,40,6.69,BR,1729713685
90,papatowai,-46.5619,169.4708,13.04,97,100,2.26,NZ,1729713607
91,necochea,-38.5473,-58.7368,21.19,42,100,2.71,AR,1729713607
92,iqaluit,63.7506,-68.5145,-4.15,62,75,3.09,CA,1729713607
93,xinyuan,37.3,99.0,-1.08,56,0,0.78,CN,1729713686
94,uturoa,-16.7333,-151.4333,27.01,79,100,6.64,PF,1729713686
95,basco,20.4487,121.9702,27.59,89,100,13.52,PH,1729713686
96,port saint john's,-31.6229,29.5448,17.96,89,48,3.77,ZA,1729713686
97,yellowknife,62.456,-114.3525,0.31,74,20,4.12,CA,1729713686
98,longyearbyen,78.2186,15.6401,0.91,93,100,3.09,SJ,1729713686
99,happy valley-goose bay,53.3168,-60.3315,19.17,48,75,9.77,CA,1729713686
100,ulladulla,-35.35,150.4667,15.5,70,100,3.44,AU,1729713687
101,isafjordur,66.0755,-23.124,0.58,97,100,2.27,IS,1729713608
102,glace bay,46.1969,-59.957,16.55,79,20,4.12,CA,1729713687
103,invercargill,-46.4,168.35,13.34,100,100,2.24,NZ,1729713530
104,thompson,55.7435,-97.8558,1.09,86,100,5.14,CA,1729713687
105,kyathampalle,19.6678,78.5289,22.36,72,100,1.66,IN,1729713608
106,west island,-12.1568,96.8225,23.99,88,75,5.14,CC,1729713687
107,las heras,-46.5419,-68.9359,22.31,20,2,6.46,AR,1729713687
108,bamboo flat,11.7,92.7167,25.05,100,75,1.03,IN,1729713687
109,makokou,0.5738,12.8642,21.94,98,92,0.61,GA,1729713687
110,victorica,-36.2151,-65.4359,14.48,91,100,3.39,AR,1729713687
111,port lincoln,-34.7333,135.8667,13.58,55,97,5.41,AU,1729713688
112,labytnangi,66.6572,66.4183,-2.22,97,99,4.27,RU,1729713449
113,rio grande,-32.035,-52.0986,21.1,88,97,7.4,BR,1729713558
114,whitehorse,60.7161,-135.0538,-0.5,100,100,1.03,CA,1729713609
115,usogorsk,63.4106,48.6872,4.57,91,100,3.46,RU,1729713688
116,borogontsy,62.6683,131.1683,-10.36,84,98,3.67,RU,1729713688
117,tadine,-21.55,167.8833,23.51,80,16,5.51,NC,1729713610
118,zouerate,22.7187,-12.4521,28.94,18,0,2.96,MR,1729713688
119,fajardo,18.3258,-65.6524,33.21,70,0,6.17,PR,1729713512
120,newman,37.3138,-121.0208,25.02,35,0,1.79,US,1729713688
121,selizharovo,56.8519,33.4487,7.12,81,38,6.17,RU,1729713688
122,margate,51.3813,1.3862,13.36,84,7,4.52,GB,1729713689
123,belel,7.05,14.4333,17.71,90,100,0.96,CM,1729713689
124,gebeit,21.0667,36.3167,23.63,65,8,2.04,SD,1729713689
125,alofi,-19.0595,-169.9187,24.94,73,75,8.23,NU,1729713689
126,baikonur,45.6167,63.3167,10.54,71,100,7.43,KZ,1729713689
127,hithadhoo,-0.6,73.0833,27.99,73,100,4.53,MV,1729713611
128,hadibu,12.65,54.0333,26.89,84,55,0.47,YE,1729713611
129,north platte,41.1239,-100.7654,18.54,38,22,4.47,US,1729713689
130,north bend,43.4065,-124.2243,15.09,76,0,0.0,US,1729713689
131,can,40.0333,27.0524,9.55,90,35,2.05,TR,1729713689
132,hammerfest,70.6634,23.6821,4.25,93,40,2.57,NO,1729713690
133,hobyo,5.3505,48.5268,26.29,87,17,8.84,SO,1729713690
134,badger,64.8,-147.5333,-0.05,83,100,4.12,US,1729713690
135,keetmanshoop,-26.5833,18.1333,24.97,9,0,2.49,NA,1729713690
136,oranjemund,-28.55,16.4333,15.94,84,33,5.0,NA,1729713612
137,jayapura,-2.5333,140.7,23.66,94,100,1.24,ID,1729713690
138,debrzno,53.5382,17.2364,7.52,78,3,2.8,PL,1729713612
139,leticia,-4.2153,-69.9406,32.03,66,40,2.57,CO,1729713690
140,antigonish,45.6169,-61.9986,17.68,86,0,2.24,CA,1729713690
141,flying fish cove,-10.4217,105.6791,24.82,83,75,2.57,CX,1729713691
142,tofol,5.3248,163.0078,28.85,73,17,4.95,FM,1729713691
143,minas de marcona,-15.2119,-75.1103,19.13,59,0,8.55,PE,1729713691
144,kontcha,7.9667,12.2333,25.54,67,86,0.77,CM,1729713613
145,aasiaat,68.7098,-52.8699,-5.43,93,98,4.06,GL,1729713691
146,bairnsdale,-37.8333,147.6167,10.03,73,6,3.15,AU,1729713691
147,hamilton,39.1834,-84.5333,26.47,46,8,2.24,US,1729713613
148,qamdo,31.1667,97.2333,1.15,50,3,0.09,CN,1729713691
149,ketchikan,55.3422,-131.6461,7.99,85,100,0.8,US,1729713613
150,taoudenni,22.6783,-3.9836,27.49,21,16,4.51,ML,1729713691
151,thunder bay,48.4001,-89.3168,6.99,49,75,8.23,CA,1729713692
152,dongola,19.1667,30.4833,26.64,20,0,7.56,SD,1729713692
153,sur,22.5667,59.5289,27.31,75,0,3.45,OM,1729713692
154,cidreira,-30.1811,-50.2056,21.97,90,71,6.17,BR,1729713614
155,mount gambier,-37.8333,140.7667,8.02,70,24,3.37,AU,1729713692
156,carutapera,-1.195,-46.02,27.89,70,100,5.05,BR,1729713692
157,nadym,65.5333,72.5167,-2.92,94,100,7.82,RU,1729713614
158,tolanaro,-25.0319,46.9987,22.04,88,40,10.8,MG,1729713692
159,porciuncula,-20.9628,-42.0408,29.4,60,95,2.33,BR,1729713693
160,sanya,18.2431,109.505,24.09,73,0,1.0,CN,1729713693
161,aliwal north,-30.6937,26.7114,14.87,63,38,3.11,ZA,1729713693
162,amqui,48.4638,-67.4313,18.1,72,2,6.63,CA,1729713615
163,brisas de zicatela,15.8369,-97.0419,29.67,69,85,2.93,MX,1729713693
164,utrik,11.2278,169.8474,28.43,80,59,4.98,MH,1729713693
165,villa emilio carranza,19.9667,-96.6,28.03,65,84,4.69,MX,1729713693
166,vila franca do campo,37.7167,-25.4333,20.23,99,100,2.12,PT,1729713615
167,rabo de peixe,37.8,-25.5833,19.73,99,75,2.06,PT,1729713693
168,haapsalu,58.9431,23.5414,11.12,84,53,9.39,EE,1729713693
169,san sebastian de la gomera,28.0916,-17.1133,22.2,78,0,2.06,ES,1729713694
170,pacific grove,36.6177,-121.9166,24.25,74,0,4.47,US,1729713694
171,taulaga,-11.0553,-171.0883,28.45,76,91,7.43,AS,1729713694
172,gympie,-26.1898,152.665,19.79,92,84,2.01,AU,1729713694
173,ulsteinvik,62.3432,5.8487,13.5,90,100,6.7,NO,1729713694
174,la'ie,21.6477,-157.9253,29.98,80,98,1.79,US,1729713694
175,paka,4.6374,103.4368,23.96,100,100,0.0,MY,1729713616
176,san juan de miraflores,-12.1629,-76.9635,20.29,79,59,4.23,PE,1729713694
177,clarence town,-32.5833,151.7833,17.75,66,0,1.38,AU,1729713694
178,el tigre,8.8875,-64.2454,32.35,44,100,4.97,VE,1729713616
179,hailey,43.5196,-114.3153,16.05,32,0,5.14,US,1729713695
180,soledade,-28.8183,-52.5103,23.02,86,68,3.55,BR,1729713695
181,sinop,41.7711,34.8709,7.49,95,11,0.49,TR,1729713695
182,alice springs,-23.7,133.8833,22.75,43,31,4.12,AU,1729713695
183,sydney,-33.8679,151.2073,19.1,78,20,7.72,AU,1729713200
184,mount isa,-20.7333,139.5,15.87,48,39,0.0,AU,1729713627
185,armacao de buzios,-22.7469,-41.8817,30.09,83,33,4.4,BR,1729713617
186,touros,-5.1989,-35.4608,25.59,72,65,6.7,BR,1729713617
187,ciudad lazaro cardenas,17.9583,-102.2,29.88,70,15,4.03,MX,1729713617
188,goroka,-6.0834,145.3873,16.41,99,100,0.57,PG,1729713696
189,zavetnoye,47.1194,43.8903,10.97,50,92,6.18,RU,1729713618
190,saipan,15.1355,145.701,27.39,83,100,5.66,MP,1729713696
191,wynyard,-41.0,145.7167,6.9,91,21,5.45,AU,1729713618
192,thanh hoa,19.8,105.7667,20.5,73,100,1.67,VN,1729713696
193,muli,2.9167,73.5667,28.15,77,50,6.29,MV,1729713618
194,naze,28.3667,129.4833,23.51,85,100,5.46,JP,1729713696
195,keflavik,64.0049,-22.5624,7.24,93,75,5.66,IS,1729713696
196,bujaru,-1.515,-48.0447,28.42,65,99,3.22,BR,1729713618
197,coron,11.9986,120.2043,26.0,88,100,10.38,PH,1729713618
198,kasongo,-4.45,26.6667,21.09,91,100,1.56,CD,1729713696
199,porto de moz,-1.7483,-52.2383,32.88,42,99,0.56,BR,1729713697
200,farafangana,-22.8167,47.8333,22.56,83,73,5.01,MG,1729713697
201,qaqortoq,60.7167,-46.0333,-0.55,78,100,1.14,GL,1729713697
202,dudinka,69.4058,86.1778,-18.45,98,100,2.89,RU,1729713697
203,hawaiian paradise park,19.5933,-154.9731,27.16,87,72,0.89,US,1729713697
204,san luis de la loma,17.2706,-100.8939,29.7,73,100,3.61,MX,1729713697
205,ilhabela,-23.7781,-45.3581,24.18,90,100,1.34,BR,1729713697
206,whitecourt,54.1502,-115.6855,5.58,60,75,1.54,CA,1729713697
207,santa ana de yacuma,-13.75,-65.4333,31.97,58,40,5.14,BO,1729713697
208,khandyga,62.6667,135.6,-11.93,86,100,1.53,RU,1729713697
209,raja,8.4596,25.678,24.18,77,83,1.78,SS,1729713698
210,sturgis,41.7992,-85.4192,17.82,58,40,7.72,US,1729713698
211,kailua-kona,19.6406,-155.9956,28.49,76,86,1.79,US,1729713620
212,nemuro,43.3236,145.575,16.16,78,0,13.61,JP,1729713620
213,sabratah,32.7933,12.4885,24.35,65,9,9.02,LY,1729713698
214,irtyshsk,53.3333,75.4572,3.85,63,91,5.32,KZ,1729713620
215,sayat,38.7839,63.8803,10.25,52,0,3.99,TM,1729713698
216,christchurch,-43.5333,172.6333,16.08,65,62,1.54,NZ,1729713495
217,fauske,67.2588,15.3918,7.75,82,93,2.99,NO,1729713620
218,kavaratti,10.5669,72.642,27.55,76,100,1.38,IN,1729713698
219,sittwe,20.15,92.9,27.38,79,84,7.21,MM,1729713620
220,plouzane,48.3833,-4.6167,12.1,87,0,5.14,FR,1729713699
221,imbituba,-28.24,-48.6703,21.72,95,100,3.0,BR,1729713699
222,avarua,-21.2078,-159.775,23.03,73,100,4.12,CK,1729713621
223,iskateley,67.6803,53.1512,3.66,94,100,3.47,RU,1729713699
224,labrador city,52.9463,-66.9114,14.95,65,75,29.5,CA,1729713699
225,crucecita,-28.95,-58.9833,31.47,52,54,3.04,AR,1729713699
226,alesund,62.4723,6.1549,12.08,94,75,10.8,NO,1729713699
227,mersa matruh,31.3525,27.2453,23.11,53,40,6.17,EG,1729713699
228,tinogasta,-28.0632,-67.5649,26.57,37,0,7.9,AR,1729713699
229,darnah,32.767,22.6367,21.14,62,1,3.79,LY,1729713699
230,enewetak,11.3474,162.3373,28.52,79,99,5.5,MH,1729713699
231,pelabuhanratu,-6.9875,106.5514,26.4,79,98,1.78,ID,1729713700
232,rahimah,26.7079,50.0619,27.77,62,100,7.06,SA,1729713700
233,jinchang,38.4953,102.1739,9.91,30,0,0.44,CN,1729713700
234,coracora,-15.0333,-73.7833,18.6,35,1,6.06,PE,1729713622
235,gulu,2.7746,32.299,19.09,92,33,0.84,UG,1729713700
236,laguna,38.421,-121.4238,25.06,38,10,0.89,US,1729713622
237,undurkhaan,47.3194,110.6556,1.52,73,78,2.34,MN,1729713700
238,kodiak,57.79,-152.4072,5.64,65,17,8.74,US,1729713700
239,carnarvon,-24.8667,113.6333,20.88,68,0,8.89,AU,1729713622
240,homer,59.6425,-151.5483,4.47,73,5,6.84,US,1729713700
241,puerto leguizamo,-0.1934,-74.7819,27.95,85,86,1.1,CO,1729713623
242,paramonga,-10.6667,-77.8333,20.26,78,35,4.92,PE,1729713623
243,labuan bajo,-8.4964,119.8877,25.86,84,5,4.3,ID,1729713701
244,petropavlovsk-kamchatsky,53.0452,158.6483,4.33,75,75,2.0,RU,1729713701
245,besisahar,28.2313,84.3761,17.52,45,0,3.53,NP,1729713701
246,coronel suarez,-37.4547,-61.9334,16.01,81,100,5.18,AR,1729713623
247,dzhambeyty,50.2536,52.595,11.04,66,100,4.79,KZ,1729713623
248,taltal,-25.4,-70.4833,19.28,56,6,3.27,CL,1729713633
249,sassandra,4.95,-6.0833,24.82,91,92,3.0,CI,1729713701
250,bubaque,11.2833,-15.8333,27.78,78,56,3.16,GW,1729713624
251,kyabram,-36.3167,145.05,5.52,91,0,3.14,AU,1729713702
252,beihai,21.4833,109.1,21.01,56,100,8.27,CN,1729713624
253,knyaze-volkonskoye,48.4642,135.4567,3.19,88,100,2.34,RU,1729713702
254,nema,57.5067,50.5011,7.53,84,100,2.99,RU,1729713702
255,lorengau,-2.0226,147.2712,27.44,81,100,9.69,PG,1729713702
256,shklow,54.2108,30.2919,7.2,80,5,4.93,BY,1729713702
257,angra do heroismo,38.65,-27.2167,19.34,82,40,5.52,PT,1729713702
258,tehachapi,35.1322,-118.449,27.15,21,0,5.81,US,1729713702
259,eastham,41.8301,-69.9739,21.08,76,0,2.24,US,1729713702
260,tshabong,-26.05,22.45,22.0,12,0,3.75,BW,1729713702
261,nieuw amsterdam,5.8833,-55.0833,27.01,83,40,4.12,SR,1729713625
262,sanga-sanga,5.0725,119.7853,29.09,79,69,7.79,PH,1729713703
263,koidu,8.4167,-10.8333,22.96,98,100,0.59,SL,1729713703
264,novo aripuana,-5.1206,-60.3797,35.18,41,100,1.68,BR,1729713703
265,remire-montjoly,4.9167,-52.2667,29.02,84,75,3.09,GF,1729713703
266,ambon,-3.6954,128.1814,29.47,100,89,2.4,ID,1729713625
267,boa vista,2.8197,-60.6733,34.99,38,40,4.63,BR,1729713703
268,jambi city,-1.6,103.6167,24.43,91,100,1.04,ID,1729713703
269,kudahuvadhoo,2.6708,72.8944,27.98,78,85,6.3,MV,1729713703
270,mena,51.5217,32.2157,7.74,84,11,4.36,UA,1729713703
271,vilyuchinsk,52.9306,158.4028,5.15,88,100,3.13,RU,1729713703
272,selfoss,63.9331,-20.9971,5.58,97,99,2.35,IS,1729713703
273,piti village,13.4626,144.6933,28.03,89,100,7.4,GU,1729713704
274,fianarantsoa,-21.4333,47.0833,14.89,89,100,4.42,MG,1729713704
275,jahazpur,25.6167,75.2833,24.76,27,10,2.15,IN,1729713626
276,melekeok village,7.4957,134.6367,28.34,78,100,3.38,PW,1729713626
277,bengkulu,-3.8004,102.2655,24.35,89,24,1.49,ID,1729713704
278,sinabang,2.4803,96.3801,26.28,82,95,1.57,ID,1729713704
279,atafu village,-8.5421,-172.5159,28.86,72,99,9.29,TK,1729713627
280,sidi merouane,36.5206,6.2611,19.26,77,100,1.66,DZ,1729713627
281,grand falls-windsor,48.9332,-55.6649,13.06,68,0,0.89,CA,1729713704
282,kargasok,59.0556,80.8572,1.26,83,100,4.99,RU,1729713704
283,isiro,2.7739,27.616,19.87,95,86,0.32,CD,1729713705
284,namsos,64.4662,11.4957,10.95,76,75,7.2,NO,1729713705
285,peace river,56.2501,-117.286,6.17,56,40,8.23,CA,1729713573
286,amga,60.8953,131.9608,-11.44,95,100,1.59,RU,1729713705
287,selkirk,50.1436,-96.8845,9.54,70,16,4.47,CA,1729713705
288,takoradi,4.8845,-1.7554,25.37,89,65,3.66,GH,1729713705
289,fortuna,40.5982,-124.1573,14.96,83,75,4.63,US,1729713705
290,beira,-19.8436,34.8389,26.05,78,0,6.26,MZ,1729713628
291,talnakh,69.4865,88.3972,-18.99,93,74,3.38,RU,1729713628
292,kuldiga,56.974,21.9572,10.19,81,67,5.64,LV,1729713628
293,crane,31.3974,-102.3501,32.43,26,1,5.08,US,1729713706
294,alvaraes,-3.2208,-64.8042,32.93,46,100,2.86,BR,1729713706
295,ust'-ilimsk,58.0006,102.6619,-6.4,94,100,3.89,RU,1729713706
296,lerwick,60.1545,-1.1494,11.74,85,100,8.66,GB,1729713706
297,lido di ostia,41.7321,12.2765,19.42,61,40,3.09,IT,1729713628
298,prado,-17.3411,-39.2208,25.26,79,5,5.18,BR,1729713706
299,kibuye,-2.0597,29.3482,20.2,75,61,1.24,RW,1729713706
300,st. john's,47.5649,-52.7093,12.76,68,40,10.29,CA,1729713706
301,ancud,-41.8697,-73.8203,12.67,77,8,5.49,CL,1729713706
302,pedro carbo,-1.8333,-80.2333,34.07,39,74,3.21,EC,1729713706
303,gwadar,25.1216,62.3254,26.49,80,0,4.25,PK,1729713706
304,novobataysk,46.8981,39.7819,10.21,75,5,4.64,RU,1729713707
305,barra de santo antonio,-9.4047,-35.5072,26.03,70,47,4.21,BR,1729713629
306,dubovka,49.0583,44.829,12.48,49,100,8.2,RU,1729713707
307,williams lake,52.1415,-122.1445,1.76,93,100,1.03,CA,1729713707
308,vernon,50.2581,-119.2691,11.53,66,9,1.54,CA,1729713707
309,birjand,32.8663,59.2211,17.26,42,40,2.06,IR,1729713707
310,jiangyou,31.7667,104.7167,17.04,81,99,1.34,CN,1729713707
311,rikaze,29.25,88.8833,3.76,52,0,1.22,CN,1729713630
312,tokmok,42.8417,75.3016,7.91,95,100,1.81,KG,1729713707
313,takab,36.4009,47.1133,2.1,82,99,1.48,IR,1729713630
314,haimen,23.1935,116.6142,19.69,63,100,4.12,CN,1729713630
315,puerto aysen,-45.4,-72.7,19.46,53,10,2.5,CL,1729713708
316,mossel bay,-34.1831,22.146,16.96,89,1,4.66,ZA,1729713630
317,jamestown,42.097,-79.2353,20.01,55,20,6.69,US,1729713708
318,kidal,18.4411,1.4078,34.24,20,86,6.43,ML,1729713708
319,vorgashor,67.5833,63.95,-5.21,92,85,2.59,RU,1729713708
320,bam,29.106,58.357,24.27,25,9,1.99,IR,1729713708
321,masterton,-40.9597,175.6575,14.82,66,9,5.71,NZ,1729713631
322,lake city,30.1897,-82.6393,28.72,50,75,3.09,US,1729713429
323,pirai do sul,-24.5261,-49.9486,19.05,97,100,1.09,BR,1729713708
324,huilong,31.8111,121.655,14.08,75,0,3.35,CN,1729713708
325,kalabo,-14.97,22.6814,25.68,47,100,1.31,ZM,1729713709
326,musaffah,24.3458,54.5024,32.75,59,0,4.63,AE,1729713709
327,cole harbour,44.6724,-63.4751,16.66,90,100,3.09,CA,1729713709
328,mamfe,5.754,9.3123,24.43,93,73,0.78,CM,1729713631
329,sokoni,-6.4333,39.55,26.08,76,2,6.56,TZ,1729713709
330,iwanai,42.9744,140.5089,13.15,86,100,9.42,JP,1729713631
331,coquimbo,-29.9533,-71.3436,17.85,65,0,7.2,CL,1729713709
332,praia,14.9215,-23.5087,26.3,78,20,4.63,CV,1729713709
333,riyadh,24.6877,46.7219,25.0,53,91,7.9,SA,1729713586
334,newnham,-41.3833,147.1333,5.53,87,5,2.57,AU,1729713632
335,the pas,53.8251,-101.2541,8.01,53,0,7.72,CA,1729713709
336,velyka bahachka,49.7912,33.7226,9.1,92,1,4.21,UA,1729713710
337,gadzhiyevo,69.2551,33.3362,2.67,90,14,3.1,RU,1729713710
338,paradip garh,20.3167,86.6167,25.09,92,100,9.48,IN,1729713710
339,cardigan,52.0847,-4.6591,12.72,92,96,7.53,GB,1729713710
340,arraial do cabo,-22.9661,-42.0278,29.98,69,0,5.14,BR,1729713710
341,kayangel,8.0823,134.7173,29.29,74,89,4.79,PW,1729713710
342,alapa,8.6167,4.3833,26.75,69,63,1.56,NG,1729713711
343,ocean shores,46.9737,-124.1563,11.64,96,12,0.45,US,1729713706
344,wailua homesteads,22.0669,-159.378,27.44,77,40,4.12,US,1729713711
345,ilebo,-4.3167,20.5833,21.79,100,100,0.96,CD,1729713711
346,campoverde,-8.4753,-74.8058,25.83,69,100,1.0,PE,1729713711
347,abalak,58.1286,68.5944,4.9,98,100,3.25,RU,1729713711
348,san antonio de pale,-1.4014,5.6325,25.74,84,69,6.44,GQ,1729713711
349,bandon,51.7469,-8.7425,12.77,92,100,9.51,IE,1729713711
350,codrington,-38.2667,141.9667,8.19,73,10,5.77,AU,1729713711
351,kharp,66.8014,65.8081,-2.84,97,100,3.47,RU,1729713712
352,kangding,30.0513,101.9603,11.55,96,100,0.34,CN,1729713712
353,krasnovishersk,60.4078,57.082,6.27,93,100,2.61,RU,1729713634
354,hengchun,22.0042,120.7439,25.68,79,100,13.54,TW,1729713712
355,san julian,21.0167,-102.1667,24.23,21,33,3.09,MX,1729713634
356,shimoda,34.6667,138.95,23.57,91,86,3.96,JP,1729713712
357,lhasa,29.65,91.1,5.37,63,74,1.21,CN,1729713712
358,cabezas,22.8418,-81.68,26.74,80,43,5.41,CU,1729713712
359,kyren,51.6828,102.1408,-0.05,86,100,0.32,RU,1729713712
360,el calafate,-50.3408,-72.2768,12.22,59,100,4.49,AR,1729713712
361,saldanha,-33.0117,17.9442,16.5,74,82,3.29,ZA,1729713713
362,zharkent,44.1628,80.0,9.19,85,98,0.95,KZ,1729713635
363,atherton,53.5237,-2.4935,12.38,87,100,0.89,GB,1729713713
364,plainview,40.7765,-73.4673,22.66,78,0,6.17,US,1729713713
365,antofagasta,-23.65,-70.4,18.6,67,3,4.68,CL,1729713603
366,dohad,22.8333,74.2667,24.8,51,10,1.58,IN,1729713636
367,itaituba,-4.2761,-55.9836,35.09,46,20,4.12,BR,1729713636
368,machico,32.7,-16.7667,22.62,82,75,3.09,PT,1729713714
369,twentynine palms,34.1356,-116.0542,31.03,14,0,0.89,US,1729713646
370,sortavala,61.7053,30.6918,8.39,60,100,5.93,RU,1729713714
371,nar'yan-mar,67.6713,53.087,3.71,95,100,3.48,RU,1729713714
372,acapulco de juarez,16.8634,-99.8901,27.31,73,83,3.5,MX,1729713457
373,kristiansund,63.1115,7.732,12.36,87,100,10.29,NO,1729713715
374,rongelap,11.1635,166.8941,28.07,82,99,4.89,MH,1729713637
375,saudarkrokur,65.7461,-19.6394,3.12,96,100,1.75,IS,1729713715
376,dzhangala,49.2167,50.3333,12.0,61,100,5.64,KZ,1729713715
377,ikungi,-5.1333,34.7667,22.36,48,11,4.23,TZ,1729713637
378,adrar,20.5022,-10.0711,29.17,16,20,3.3,MR,1729713715
379,jining,35.405,116.5814,10.3,74,0,2.93,CN,1729713715
380,colonia,50.9333,6.95,10.07,89,0,1.54,DE,1729713716
381,puerto santa,-8.9906,-78.6456,19.56,80,44,5.68,PE,1729713637
382,murzuq,25.9155,13.9184,23.57,27,0,4.98,LY,1729713716
383,portland,45.5234,-122.6762,13.23,79,75,1.54,US,1729713563
384,laascaanood,8.4774,47.3597,27.49,54,37,8.43,SO,1729713716
385,kuta,-8.7233,115.1723,26.97,94,40,1.03,ID,1729713716
386,opuwo,-18.0607,13.84,23.73,18,0,3.32,NA,1729713716
387,leer,53.2316,7.461,11.64,93,73,3.27,DE,1729713716
388,touba,8.2833,-7.6833,22.91,94,100,1.94,CI,1729713716
389,n'zeto,-7.2312,12.8666,24.95,88,89,3.56,AO,1729713717
390,cheremukhovo,60.3484,59.9851,6.15,90,100,1.48,RU,1729713717
391,novosmolinskiy,56.2841,43.0507,8.49,79,98,6.07,RU,1729713717
392,meizhou,24.2977,116.1072,15.37,74,100,1.11,CN,1729713717
393,ushirombo,-3.4919,31.9639,21.89,72,93,2.07,TZ,1729713717
394,martinsville,36.6915,-79.8725,25.9,30,0,2.57,US,1729713717
395,tarauaca,-8.1614,-70.7656,26.12,96,90,1.27,BR,1729713717
396,griffith,41.5284,-87.4237,17.92,47,0,5.66,US,1729713717
397,northam,51.0333,-4.2167,12.01,92,98,5.41,GB,1729713717
398,bowen,-20.0167,148.2333,23.83,74,12,4.81,AU,1729713717
399,katsuura,35.1333,140.3,24.36,90,80,6.2,JP,1729713640
400,arvayheer,46.2639,102.775,3.9,45,76,2.28,MN,1729713718
401,olinda,-8.0089,-34.8553,27.85,65,40,5.66,BR,1729713718
402,petrolina,-9.3986,-40.5008,34.03,31,0,3.6,BR,1729713718
403,kourou,5.1552,-52.6478,27.12,77,100,4.25,GF,1729713718
404,andergrove,-21.0833,149.1833,23.48,78,5,5.98,AU,1729713718
405,lepsy,46.235,78.9456,7.33,83,51,4.39,KZ,1729713718
406,heroica caborca,30.7167,-112.15,33.59,13,2,2.25,MX,1729713718
407,lagoa,39.05,-27.9833,19.03,72,100,9.6,PT,1729713640
408,funafuti,-8.5243,179.1942,29.0,84,75,6.69,TV,1729713718
409,ron phibun,8.1791,99.8542,24.35,89,100,0.86,TH,1729713718
410,teguise,29.0605,-13.564,20.12,73,20,4.12,ES,1729713719
411,kuanda,56.3161,116.0806,-4.59,96,100,1.46,RU,1729713719
412,yuzhno-kurilsk,44.0306,145.8556,15.83,84,100,8.4,RU,1729713719
413,bardai,11.65,7.2333,25.98,27,67,3.08,NG,1729713641
414,riohacha,11.5444,-72.9072,32.06,70,20,2.57,CO,1729713641
415,fale old settlement,-9.3852,-171.2468,28.71,73,32,7.68,TK,1729713719
416,afaahiti,-17.75,-149.2833,25.0,86,100,7.09,PF,1729713719
417,baykal'sk,51.5058,104.1469,2.95,86,98,2.48,RU,1729713641
418,sefwi wiawso,6.2044,-2.4886,23.16,99,100,1.59,GH,1729713719
419,zaigrayevo,51.8336,108.2703,-1.97,87,55,1.14,RU,1729713642
420,nova odesa,47.3078,31.7851,13.85,72,96,6.04,UA,1729713719
421,rocky mountain house,52.3668,-114.9188,8.06,29,38,0.0,CA,1729713720
422,tierralta,8.1736,-76.0592,29.15,80,86,2.61,CO,1729713720
423,vradiyivka,47.862,30.5919,10.7,80,7,4.42,UA,1729713720
424,berezovyy,51.6667,135.7,-1.15,95,100,1.46,RU,1729713720
425,kardzhali,41.65,25.3667,11.93,42,96,2.23,BG,1729713642
426,salinopolis,-0.6136,-47.3561,27.58,73,93,7.11,BR,1729713642
427,nogliki,51.8333,143.1667,6.84,98,100,8.97,RU,1729713720
428,klyuchi,52.2667,79.1667,6.04,81,98,5.21,RU,1729713720
429,antonio enes,-16.2325,39.9086,25.6,76,7,6.6,MZ,1729713720
430,chinsali,-10.5414,32.0816,23.89,37,38,4.68,ZM,1729713643
431,dor marunt,44.45,26.9167,12.8,60,30,3.46,RO,1729713720
432,chimoio,-19.1164,33.4833,25.92,78,20,1.62,MZ,1729713643
433,klaksvik,62.2266,-6.589,10.77,95,100,15.05,FO,1729713721
434,novodvinsk,64.4165,40.8122,5.86,89,100,2.93,RU,1729713721
435,moroeni,45.2167,25.4333,8.25,59,9,1.89,RO,1729713721
436,bayganin,48.6947,55.8742,7.3,76,100,4.47,KZ,1729713721
437,grande prairie,55.1667,-118.8027,6.1,49,75,9.77,CA,1729713571
438,coahuayana de hidalgo,18.7,-103.6583,31.66,67,42,2.96,MX,1729713721
439,east london,-33.0153,27.9116,17.46,86,28,1.49,ZA,1729713722
440,marovoay,-16.1,46.6333,26.22,46,0,3.12,MG,1729713722
441,phan thiet,10.9333,108.1,23.37,91,99,2.0,VN,1729713644
442,port macquarie,-31.4333,152.9167,16.71,97,100,0.89,AU,1729713610
443,boguchany,58.3814,97.4531,-6.18,78,11,2.48,RU,1729713644
444,cepu,-7.1475,111.5906,26.43,71,98,2.44,ID,1729713722
445,timbiqui,2.7717,-77.6654,26.55,83,100,2.78,CO,1729713722
446,makary,12.5717,14.4666,29.81,20,33,3.64,CM,1729713722
447,dampit,-8.2116,112.7493,20.92,99,100,1.2,ID,1729713722
448,juruti,-2.1522,-56.0922,37.35,31,100,2.64,BR,1729713722
449,dzhalagash,45.0833,64.6667,10.09,72,100,5.6,KZ,1729713722
450,midvagur,62.0511,-7.1939,11.46,93,100,8.75,FO,1729713645
451,corinto,37.9407,22.9573,14.94,57,7,1.18,GR,1729713723
452,tazacorte,28.629,-17.9293,22.54,93,40,3.6,ES,1729713723
453,chilca,-12.5211,-76.7372,18.61,84,75,3.73,PE,1729713723
454,paracuru,-3.41,-39.0306,26.44,73,76,6.37,BR,1729713723
455,chibougamau,49.9168,-74.3659,4.79,93,100,5.14,CA,1729713723
456,chokwe,-24.5333,32.9833,20.1,89,0,2.68,MZ,1729713723
457,ola,59.5833,151.2833,-5.92,52,61,3.92,RU,1729713723
458,axim,4.8699,-2.2405,25.52,88,92,3.28,GH,1729713646
459,kapa'a,22.0752,-159.319,28.18,76,40,4.12,US,1729713646
460,santa cruz,-17.8,-63.1667,33.03,58,40,8.75,BO,1729713724
461,laredo,27.5064,-99.5075,32.16,40,75,3.6,US,1729713724
462,dauphin,51.1494,-100.0502,14.08,38,0,9.77,CA,1729713724
463,nova vicosa,-17.8919,-39.3719,25.89,74,7,5.2,BR,1729713724
464,baena,37.6167,-4.3225,18.99,72,62,2.09,ES,1729713724
465,petawawa,45.9001,-77.3328,18.77,59,100,3.09,CA,1729713647
466,conceicao da barra,-18.5933,-39.7322,25.57,77,96,4.34,BR,1729713724
467,shadegan,30.6497,48.6647,21.62,17,0,5.14,IR,1729713647
468,tazovsky,67.4667,78.7,-15.12,91,96,5.28,RU,1729713647
469,ammon,43.4696,-111.9666,18.88,40,99,0.89,US,1729713647
470,inhambane,-23.865,35.3833,23.99,94,75,5.81,MZ,1729713647
471,ambatondrazaka,-17.8333,48.4167,17.84,80,78,3.06,MG,1729713648
472,del rio,29.3627,-100.8968,31.06,47,0,5.14,US,1729713396
473,buenos aires,-34.6132,-58.3772,21.06,93,100,10.28,AR,1729713648
474,vorkuta,67.5,64.0,-5.56,93,84,2.02,RU,1729713648
475,hue,16.4667,107.6,25.06,83,75,4.12,VN,1729713648
476,yusufeli,40.8204,41.5443,7.55,86,14,0.9,TR,1729713648
477,kununurra,-15.7667,128.7333,24.99,94,13,1.54,AU,1729713648
478,koh kong,11.6175,102.9806,25.47,87,100,2.21,KH,1729713648
479,namibe,-15.1961,12.1522,18.98,74,47,4.46,AO,1729713648
480,camacupa,-12.0167,17.4833,21.42,64,64,3.12,AO,1729713649
481,kapuskasing,49.4169,-82.4331,3.05,81,75,5.14,CA,1729713649
482,severo-yeniseyskiy,60.3725,93.0408,-20.58,100,100,1.64,RU,1729713649
483,bischofshofen,47.4167,13.2167,14.19,98,100,0.82,AT,1729713649
484,palmer,42.1584,-72.3287,24.01,57,1,1.34,US,1729713649
485,livingston,55.9029,-3.5226,11.44,82,40,0.51,GB,1729713649
486,khuzdar,27.7384,66.6434,21.43,27,0,0.49,PK,1729713649
487,donaldsonville,30.101,-90.9929,29.42,46,6,0.56,US,1729713649
488,susanville,40.4163,-120.653,19.14,20,97,5.02,US,1729713649
489,malango,-2.9627,119.9001,17.82,95,100,1.12,ID,1729713649
490,chukhloma,58.7525,42.6825,6.56,92,100,2.88,RU,1729713649
491,ar ruways,24.1103,52.7306,30.19,63,0,4.89,AE,1729713650
492,tidjikja,18.5564,-11.4271,30.09,15,0,4.32,MR,1729713650
493,karratha,-20.7377,116.8463,28.25,40,100,2.79,AU,1729713650
494,mocajuba,-2.5842,-49.5072,35.26,36,100,2.17,BR,1729713650
495,sakata,38.9167,139.855,18.02,78,97,7.47,JP,1729713650
496,sao felix do xingu,-6.6447,-51.995,37.14,28,100,1.98,BR,1729713650
497,nuku'alofa,-21.1333,-175.2,23.19,78,100,6.17,TO,1729713650
498,reggane,26.7158,0.1714,24.89,30,1,4.54,DZ,1729713650
499,sandnessjoen,66.0217,12.6316,6.06,93,75,1.54,NO,1729713651
500,balcarce,-37.8462,-58.2552,13.79,89,100,1.79,AR,1729713651
501,awjilah,29.1081,21.2869,20.9,42,0,2.56,LY,1729713651
502,tesistan,20.7833,-103.4833,26.88,22,79,2.51,MX,1729713651
503,pimentel,-6.8367,-79.9342,22.16,68,20,9.77,PE,1729713651
504,mitu,1.1983,-70.1733,28.79,73,100,0.66,CO,1729713651
505,kajaani,64.2273,27.7285,6.03,75,0,6.17,FI,1729713651
506,belyye stolby,55.3314,37.854,7.92,81,40,6.0,RU,1729713651
507,el dorado,38.7666,-120.5177,24.12,29,7,0.45,US,1729713651
508,yaren,-0.5472,166.916,28.03,70,100,6.19,NR,1729713652
509,charters towers,-20.1,146.2667,20.63,83,30,3.64,AU,1729713652
510,iturama,-19.7281,-50.1956,31.05,50,85,1.36,BR,1729713652
511,leava,-14.3,-178.1667,26.67,79,82,11.64,WF,1729713652
512,springfield,37.2153,-93.2982,27.84,45,0,6.26,US,1729713374
513,nampula,-15.1165,39.2666,22.85,71,33,3.58,MZ,1729713652
514,saint-joseph,-21.3667,55.6167,21.21,80,19,5.59,RE,1729713652
515,vallenar,-28.5708,-70.7581,21.44,21,0,4.12,CL,1729713652
516,bor,56.3567,44.0669,8.96,82,100,6.86,RU,1729713653
517,itoman,26.1247,127.6694,28.21,97,100,4.45,JP,1729713653
518,tillaberi,14.2117,1.4531,36.14,26,8,3.33,NE,1729713653
519,san ignacio de velasco,-16.3667,-60.95,32.76,43,93,4.74,BO,1729713653
520,aljezur,37.3191,-8.8033,18.73,79,28,5.05,PT,1729713653
521,port-vila,-17.7338,168.3219,23.78,94,20,2.06,VU,1729713653
522,oistins,13.0667,-59.5333,31.05,74,40,7.72,BB,1729713653
523,torrington,41.8007,-73.1212,24.14,59,2,0.89,US,1729713653
524,medicine hat,50.0501,-110.6683,10.12,45,20,0.0,CA,1729713468
525,calvi,42.5,8.8333,15.35,94,0,1.03,FR,1729713654
526,soledad de graciano sanchez,22.2,-100.95,23.75,22,89,6.4,MX,1729713654
527,zheshart,62.0731,49.5733,6.0,87,100,3.05,RU,1729713654
528,monterey,36.2505,-121.2516,24.54,32,0,1.66,US,1729713654
529,nikolayevsk-on-amure,53.1406,140.73,1.87,97,100,5.86,RU,1729713654
530,al fuwayliq,26.4432,43.2534,16.9,27,4,6.16,SA,1729713654
531,dossor,47.5272,52.9811,12.61,58,100,6.73,KZ,1729713654
532,hailar,49.2,119.7,-1.92,76,28,3.81,CN,1729713654
533,ben tre,10.2333,106.3833,22.39,97,100,1.26,VN,1729713654
534,vicuna,-30.0319,-70.7081,22.4,36,0,3.58,CL,1729713654
535,fort drum,44.0584,-75.7619,20.6,56,100,4.63,US,1729713655
536,conduaga,8.862,117.4893,26.39,90,100,7.03,PH,1729713655
537,ke-macina,13.9623,-5.3572,32.08,35,0,2.81,ML,1729713655
538,meulaboh,4.1363,96.1285,24.95,89,100,2.05,ID,1729713655
539,saint-pierre,-21.3393,55.4781,21.82,60,75,1.54,RE,1729713655
540,el nido,11.1858,119.3956,28.41,86,100,0.45,PH,1729713655
541,sidi ifni,29.3797,-10.173,23.99,56,98,1.86,MA,1729713655
542,port douglas,-16.4833,145.4667,24.1,76,100,0.79,AU,1729713655
543,pisco,-13.7,-76.2167,21.68,83,0,4.63,PE,1729713655
544,valparaiso,-33.0393,-71.6273,18.8,59,20,4.63,CL,1729713655
545,katabu,-4.9333,122.5167,23.83,92,96,1.19,ID,1729713655
546,ambodivoara,-14.3397,49.9826,20.19,97,62,0.88,MG,1729713656
547,al bawiti,28.3492,28.8659,20.5,45,0,8.32,EG,1729713656
548,camana,-16.6228,-72.7111,20.14,76,2,4.98,PE,1729713656
549,as sulayyil,20.4607,45.5779,28.36,27,0,3.69,SA,1729713656
550,al muwayh,22.4333,41.7583,27.51,39,100,1.5,SA,1729713656
551,accra,5.556,-0.1969,27.23,89,75,5.14,GH,1729713656
552,evanston,42.0411,-87.6901,17.84,44,6,2.68,US,1729713656
553,vallegrande,-18.4897,-64.1069,25.24,45,11,5.89,BO,1729713656
554,chita,52.0333,113.55,-8.06,93,40,1.0,RU,1729713656
555,vilyuysk,63.7553,121.6247,-11.9,93,100,3.56,RU,1729713656
556,konstantinovka,49.6167,127.9833,-2.11,55,97,1.49,RU,1729713657
557,arno,60.1167,18.6333,9.37,76,100,7.04,SE,1729713657
558,tevriz,57.509,72.4042,2.79,96,100,2.3,RU,1729713657
559,emerald,-23.5333,148.1667,20.75,76,2,3.12,AU,1729713657
560,xilin hot,43.9667,116.0333,2.09,59,4,3.2,CN,1729713657
561,norrtalje,59.758,18.705,11.12,78,97,5.2,SE,1729713657
562,buala,-8.145,159.5921,26.84,84,100,3.44,SB,1729713657
563,bayville,40.9106,-73.5621,23.77,74,2,1.34,US,1729713657
564,saint-francois,46.4154,3.9054,10.92,94,0,0.51,FR,1729713657
565,chulucanas,-5.0925,-80.1625,32.19,37,42,5.7,PE,1729713657
566,inyonga,-6.7167,32.0667,24.75,40,41,1.44,TZ,1729713658
567,walvis bay,-22.9575,14.5053,14.19,89,1,3.31,NA,1729713658
568,obninsk,55.0969,36.6103,10.6,69,20,6.71,RU,1729713658
569,greenville,35.6127,-77.3663,27.01,52,0,0.45,US,1729713658
570,manay,7.215,126.5397,25.3,75,99,3.28,PH,1729713658
571,concepcion,-36.827,-73.0498,13.89,82,75,4.63,CL,1729713658
572,potosi,-19.5836,-65.7531,13.48,58,40,9.26,BO,1729713658
573,martuk,50.7475,56.5056,7.02,78,100,3.56,KZ,1729713659
574,akureyri,65.6835,-18.0878,-0.04,100,100,1.54,IS,1729713659
575,monrovia,6.3005,-10.7969,25.4,88,76,3.51,LR,1729713612
576,westport,41.1415,-73.3579,24.04,68,10,1.34,US,1729713533
577,deming,32.2687,-107.7586,27.97,14,1,1.57,US,1729713659
578,quellon,-43.1167,-73.6167,14.29,73,20,1.54,CL,1729713659
579,susuman,62.7833,148.1667,-24.04,100,100,0.23,RU,1729713659
580,el porvenir,13.7617,-87.3458,30.61,63,73,0.9,HN,1729713659
581,lupane,-18.9315,27.807,25.11,41,57,2.7,ZW,1729713659
582,saint helens,53.45,-2.7333,12.34,88,0,4.63,GB,1729713659
583,maracaibo,10.6317,-71.6406,32.84,54,90,1.39,VE,1729713608
584,zeribet el oued,34.6828,6.5111,26.1,49,100,6.37,DZ,1729713660
585,chasong,41.4608,126.6414,-4.37,98,52,0.63,KP,1729713660
586,recani,31.2846,-4.2688,21.83,38,99,2.63,MA,1729713660
587,taro,-8.3862,115.28,18.67,100,81,0.14,ID,1729713660
588,oyem,1.5995,11.5793,20.62,97,61,0.56,GA,1729713660
589,chulym,55.0997,80.9572,4.75,91,100,4.52,RU,1729713660
590,andovoranto,-18.95,49.1,21.8,89,77,2.47,MG,1729713660
591,mankera,31.3866,71.4407,27.04,21,0,3.13,PK,1729713660
592,mount pearl,47.5166,-52.7813,12.3,73,40,10.29,CA,1729713660
593,khanty-mansiysk,61.0042,69.0019,3.06,100,75,3.0,RU,1729713661
594,bauska,56.4075,24.1906,7.52,88,7,5.42,LV,1729713661
